[
  {
    "name": "Bajaj Service Center 1",
    "location": "Kochi",
    "address": "123, MG Road, Kochi",
    "contact": "9876543210"
  },
  {
    "name": "Bajaj Service Center 2",
    "location": "pathanamthitta",
    "address": "456, Main Road, pathanmthitta",
    "contact": "9876543211"
  }, 
  {
    "name": "Bajaj Service Center 1",
    "location": "pathanamthitta",
    "address": "123, MG Road, pathanmthitta",
    "contact": "9876543210"
  },
  {
    "name": "Bajaj Service Center 2",
    "location": "Trivandrum",
    "address": "456, Main Road, Trivandrum",
    "contact": "9876543211"
  },
  {
    "name": "Bajaj Service Center 1",
    "location": "Kochi",
    "address": "123, MG Road, Kochi",
    "contact": "9876543210"
  },
  {
    "name": "Bajaj Service Center 2",
    "location": "Trivandrum",
    "address": "456, Main Road, Trivandrum",
    "contact": "9876543211"
  }, 
  {
    "name": "Bajaj Service Center 1",
    "location": "Kochi",
    "address": "123, MG Road, Kochi",
    "contact": "9876543210"
  },
  {
    "name": "Bajaj Service Center 2",
    "location": "Trivandrum",
    "address": "456, Main Road, Trivandrum",
    "contact": "9876543211"
  },
  {
    "name": "Bajaj Service Center 1",
    "location": "kollam",
    "address": "123, MG Road, kollam",
    "contact": "9876543210"
  },
  {
    "name": "Bajaj Service Center 2",
    "location": "Trivandrum",
    "address": "456, Main Road, Trivandrum",
    "contact": "9876543211"
  }, 
  {
    "name": "Bajaj Service Center 1",
    "location": "kollam",
    "address": "123, MG Road, kollam",
    "contact": "9876543210"
  },
  {
    "name": "Bajaj Service Center 2",
    "location": "Trivandrum",
    "address": "456, Main Road, Trivandrum",
    "contact": "9876543211"
  },
  {
    "name": "Bajaj Service Center 1",
    "location": "kollam",
    "address": "123, MG Road, kollam",
    "contact": "9876543210"
  },
  {
    "name": "Bajaj Service Center 2",
    "location": "Trivandrum",
    "address": "456, Main Road, Trivandrum",
    "contact": "9876543211"
  }, 
  {
    "name": "Bajaj Service Center 1",
    "location": "kollam",
    "address": "123, MG Road, kollam",
    "contact": "9876543210"
  },
  {
    "name": "Bajaj Service Center 2",
    "location": "Trivandrum",
    "address": "456, Main Road, Trivandrum",
    "contact": "9876543211"
  },
  {
    "name": "Bajaj Service Center 1",
    "location": "kollam",
    "address": "123, MG Road, kollam",
    "contact": "9876543210"
  },
  {
    "name": "Bajaj Service Center 2",
    "location": "Trivandrum",
    "address": "456, Main Road, Trivandrum",
    "contact": "9876543211"
  }, 
  {
    "name": "Bajaj Service Center 1",
    "location": "kollam",
    "address": "123, MG Road, kollam",
    "contact": "9876543210"
  },
  {
    "name": "Bajaj Service Center 2",
    "location": "Trivandrum",
    "address": "456, Main Road, Trivandrum",
    "contact": "9876543211"
  },
  {
    "name": "Bajaj Service Center 1",
    "location": "kollam",
    "address": "123, MG Road, kollam",
    "contact": "9876543210"
  },
  {
    "name": "Bajaj Service Center 2",
    "location": "Trivandrum",
    "address": "456, Main Road, Trivandrum",
    "contact": "9876543211"
  }, 
  {
    "name": "Bajaj Service Center 1",
    "location": "kollam",
    "address": "123, MG Road, kollam",
    "contact": "9876543210"
  },
  {
    "name": "Bajaj Service Center 2",
    "location": "Trivandrum",
    "address": "456, Main Road, Trivandrum",
    "contact": "9876543211"
  },
  {
    "name": "Bajaj Service Center 1",
    "location": "Kottayam",
    "address": "123, MG Road, Kottayam",
    "contact": "9876543210"
  },
  {
    "name": "Bajaj Service Center 2",
    "location": "Trivandrum",
    "address": "456, Main Road, Trivandrum",
    "contact": "9876543211"
  }, 
  {
    "name": "Bajaj Service Center 1",
    "location": "Kottayam",
    "address": "123, MG Road, Kottayam",
    "contact": "9876543210"
  },
  {
    "name": "Bajaj Service Center 2",
    "location": "Trivandrum",
    "address": "456, Main Road, Trivandrum",
    "contact": "9876543211"
  },
  {
    "name": "Bajaj Service Center 1",
    "location": "Kottayam",
    "address": "123, MG Road, Kottayam",
    "contact": "9876543210"
  },
  {
    "name": "Bajaj Service Center 2",
    "location": "Trivandrum",
    "address": "456, Main Road, Trivandrum",
    "contact": "9876543211"
  }, 
  {
    "name": "Bajaj Service Center 1",
    "location": "Kottayam",
    "address": "123, MG Road, Kottayam",
    "contact": "9876543210"
  },
  {
    "name": "Bajaj Service Center 2",
    "location": "Trivandrum",
    "address": "456, Main Road, Trivandrum",
    "contact": "9876543211"
  },
  {
    "name": "Bajaj Service Center 2",
    "location": "Trivandrum",
    "address": "456, Main Road, Trivandrum",
    "contact": "9876543211"
  }, 
  {
    "name": "Bajaj Service Center 1",
    "location": "Thrissur",
    "address": "123, MG Road, Thrissur",
    "contact": "9876543210"
  },
  {
    "name": "Bajaj Service Center 2",
    "location": "Thrissur",
    "address": "456, Main Road, Thrissur",
    "contact": "9876543211"
  }
]